{ "type": "FeatureCollection", "features": [ { "geometry": { "type": "Point", "coordinates": [ -90.05318516309497, 35.14785922183367 ] }, "type": "Feature", "properties": { "Status": "M", "City": "Memphis", "Match_type": "A", "Name": "Shoppers Garage", "Zip": 38103.0, "Phone": "888-998-2546", "ARC_Zone": "38103", "County": "Shelby", "Fuel": "Electric", "State": "TN", "Score": 100, "Address": "85 N Front St", "ARC_Street": "85 N Front St", "Match_addr": "85 N FRONT ST, 38103", "Type": "Level 2", "Side": "L" } }, { "geometry": { "type": "Point", "coordinates": [ -90.0518821815229, 35.142712730542804 ] }, "type": "Feature", "properties": { "Status": "M", "City": "Memphis", "Match_type": "A", "Name": "The Peabody", "Zip": 38103.0, "Phone": "888-998-2546", "ARC_Zone": "38103", "County": "Shelby", "Fuel": "Electric", "State": "TN", "Score": 100, "Address": "149 Union Ave", "ARC_Street": "149 Union Ave", "Match_addr": "149 UNION AVE, 38103", "Type": "Level 2", "Side": "R" } }, { "geometry": { "type": "Point", "coordinates": [ -90.0539038709145, 35.14247155483539 ] }, "type": "Feature", "properties": { "Status": "M", "City": "Memphis", "Match_type": "A", "Name": "Gayoso Garage", "Zip": 38103.0, "Phone": "888-998-2546", "ARC_Zone": "38103", "County": "Shelby", "Fuel": "Electric", "State": "TN", "Score": 100, "Address": "100 S Main St", "ARC_Street": "100 S Main St", "Match_addr": "100 S MAIN ST, 38103", "Type": "Level 2", "Side": "L" } }, { "geometry": { "type": "Point", "coordinates": [ -90.05088655584895, 35.14021165879115 ] }, "type": "Feature", "properties": { "Status": "M", "City": "Memphis", "Match_type": "A", "Name": "Peabody Place Garage", "Zip": 38103.0, "Phone": "888-998-2546", "ARC_Zone": "38103", "County": "Shelby", "Fuel": "Electric", "State": "TN", "Score": 63, "Address": "250 Peabody Pl", "ARC_Street": "250 Peabody Pl", "Match_addr": "252 PEABODY PL, 38103", "Type": "Level 2", "Side": "L" } }, { "geometry": { "type": "Point", "coordinates": [ -90.03463832240175, 35.138643304486706 ] }, "type": "Feature", "properties": { "Status": "M", "City": "Memphis", "Match_type": "A", "Name": "EV Charging Stations", "Zip": 38103.0, "Phone": "855-443-3873", "ARC_Zone": "38103", "County": "Shelby", "Fuel": "Electric", "State": "TN", "Score": 100, "Address": "804 Union Ave", "ARC_Street": "804 Union Ave", "Match_addr": "804 UNION AVE, 38103", "Type": "Level 2", "Side": "L" } }, { "geometry": { "type": "Point", "coordinates": [ -90.02972179765555, 35.13890711636039 ] }, "type": "Feature", "properties": { "Status": "M", "City": "Memphis", "Match_type": "A", "Name": "Memphis Bioworks Foundation", "Zip": 38103.0, "Phone": "888-998-2546", "ARC_Zone": "38103", "County": "Shelby", "Fuel": "Electric", "State": "TN", "Score": 82, "Address": "48 S Dudley St", "ARC_Street": "48 S Dudley St", "Match_addr": "48 DUDLEY ST, 38103", "Type": "Level 2", "Side": "L" } }, { "geometry": { "type": "Point", "coordinates": [ -90.03209710677139, 35.13359342563278 ] }, "type": "Feature", "properties": { "Status": "M", "City": "Memphis", "Match_type": "A", "Name": "Arrow Cab Company", "Zip": 38126.0, "Phone": "888-998-2546", "ARC_Zone": "38126", "County": "Shelby", "Fuel": "Electric", "State": "TN", "Score": 100, "Address": "901 Vance Ave", "ARC_Street": "901 Vance Ave", "Match_addr": "901 VANCE AVE, 38126", "Type": "Level 2", "Side": "R" } }, { "geometry": { "type": "Point", "coordinates": [ -89.96181812390509, 35.08550463299244 ] }, "type": "Feature", "properties": { "Status": "M", "City": "Memphis", "Match_type": "A", "Name": "U Haul", "Zip": 38114.0, "Phone": "901-743-1993", "ARC_Zone": "38114", "County": "Shelby", "Fuel": "Propane", "State": "TN", "Score": 100, "Address": "3020 Lamar Ave", "ARC_Street": "3020 Lamar Ave", "Match_addr": "3020 LAMAR AVE, 38114", "Type": null, "Side": "L" } }, { "geometry": { "type": "Point", "coordinates": [ -89.9454286231016, 35.070181283601926 ] }, "type": "Feature", "properties": { "Status": "M", "City": "Memphis", "Match_type": "A", "Name": "Gibson Propane", "Zip": 38118.0, "Phone": "901-363-0101", "ARC_Zone": "38118", "County": "Shelby", "Fuel": "Propane", "State": "TN", "Score": 100, "Address": "3542 Lamar Ave", "ARC_Street": "3542 Lamar Ave", "Match_addr": "3542 LAMAR AVE, 38118", "Type": null, "Side": "L" } }, { "geometry": { "type": "Point", "coordinates": [ -89.89638717157843, 35.18231087585373 ] }, "type": "Feature", "properties": { "Status": "M", "City": "Memphis", "Match_type": "A", "Name": "Jim Keras Nissan", "Zip": 38128.0, "Phone": "901-373-2800", "ARC_Zone": "38128", "County": "Shelby", "Fuel": "Electric", "State": "TN", "Score": 100, "Address": "2080 Covington Pike", "ARC_Street": "2080 Covington Pike", "Match_addr": "2080 COVINGTON PIKE, 38128", "Type": "Level 2", "Side": "R" } }, { "geometry": { "type": "Point", "coordinates": [ -90.01865656408637, 35.02102586292126 ] }, "type": "Feature", "properties": { "Status": "T", "City": "Memphis", "Match_type": "A", "Name": "U Haul", "Zip": 38116.0, "Phone": "901-332-6603", "ARC_Zone": "38116", "County": "Shelby", "Fuel": "Propane", "State": "TN", "Score": 100, "Address": "1364 E Shelby Dr", "ARC_Street": "1364 E Shelby Dr", "Match_addr": "1364 E SHELBY DR, 38116", "Type": null, "Side": "L" } }, { "geometry": { "type": "Point", "coordinates": [ -89.8843007818383, 35.15698871599388 ] }, "type": "Feature", "properties": { "Status": "M", "City": "Memphis", "Match_type": "A", "Name": "U Haul", "Zip": 38122.0, "Phone": "901-767-1663", "ARC_Zone": "38122", "County": "Shelby", "Fuel": "Propane", "State": "TN", "Score": 100, "Address": "5315 Summer Ave", "ARC_Street": "5315 Summer Ave", "Match_addr": "5315 SUMMER AVE, 38122", "Type": null, "Side": "R" } }, { "geometry": { "type": "Point", "coordinates": [ -89.8861767117702, 35.051692922371416 ] }, "type": "Feature", "properties": { "Status": "M", "City": "Memphis", "Match_type": "A", "Name": "U Haul", "Zip": 38115.0, "Phone": "901-366-2624", "ARC_Zone": "38115", "County": "Shelby", "Fuel": "Propane", "State": "TN", "Score": 64, "Address": "3551 S Mendenhall Rd", "ARC_Street": "3551 S Mendenhall Rd", "Match_addr": "3550 S MENDENHALL RD, 38115", "Type": null, "Side": "L" } }, { "geometry": { "type": "Point", "coordinates": [ -89.83930545949453, 35.16972247931276 ] }, "type": "Feature", "properties": { "Status": "M", "City": "Memphis", "Match_type": "A", "Name": "Ewing Kessler", "Zip": 38134.0, "Phone": "888-998-2546", "ARC_Zone": "38134", "County": "Shelby", "Fuel": "Electric", "State": "TN", "Score": 100, "Address": "1631 Century Center Pkwy", "ARC_Street": "1631 Century Center Pkwy", "Match_addr": "1631 CENTURY CENTER PKWY, 38134", "Type": "Level 2", "Side": "L" } }, { "geometry": { "type": "Point", "coordinates": [ -89.88479485824439, 35.03791751489727 ] }, "type": "Feature", "properties": { "Status": "M", "City": "Memphis", "Match_type": "M", "Name": "Sharp Electronics", "Zip": 38115.0, "Phone": "888-998-2546", "ARC_Zone": "38115", "County": "Shelby", "Fuel": "Electric", "State": "TN", "Score": 100, "Address": "Sharp Plaza Blvd", "ARC_Street": "4055 S MENDENHALL RD", "Match_addr": "4055 S MENDENHALL RD, 38115", "Type": "Level 2", "Side": "R" } }, { "geometry": { "type": "Point", "coordinates": [ -89.87478700007205, 34.99526108508514 ] }, "type": "Feature", "properties": { "Status": "M", "City": "Memphis", "Match_type": "A", "Name": "Amerigas", "Zip": 38118.0, "Phone": "901-363-4600", "ARC_Zone": "38118", "County": "Shelby", "Fuel": "Propane", "State": "TN", "Score": 100, "Address": "5675 Pidgeon Roost Rd", "ARC_Street": "5675 Pidgeon Roost Rd", "Match_addr": "5675 PIDGEON ROOST RD, 38118", "Type": null, "Side": "R" } }, { "geometry": { "type": "Point", "coordinates": [ -89.79176124641849, 35.211074366628466 ] }, "type": "Feature", "properties": { "Status": "M", "City": "Bartlett", "Match_type": "A", "Name": "Wolfchase Nissan", "Zip": 38133.0, "Phone": "901-255-3800", "ARC_Zone": "38133", "County": "Shelby", "Fuel": "Electric", "State": "TN", "Score": 100, "Address": "2982 N Germantown Rd", "ARC_Street": "2982 N Germantown Rd", "Match_addr": "2982 N GERMANTOWN RD, 38133", "Type": "Level 2", "Side": "R" } }, { "geometry": { "type": "Point", "coordinates": [ -89.79584018564935, 35.03413112279112 ] }, "type": "Feature", "properties": { "Status": "M", "City": "Memphis", "Match_type": "A", "Name": "Dobbs Nissan", "Zip": 38125.0, "Phone": "901-759-6100", "ARC_Zone": "38125", "County": "Shelby", "Fuel": "Electric", "State": "TN", "Score": 100, "Address": "4140 Hacks Cross Rd", "ARC_Street": "4140 Hacks Cross Rd", "Match_addr": "4140 HACKS CROSS RD, 38125", "Type": "Level 2", "Side": "L" } }, { "geometry": { "type": "Point", "coordinates": [ -89.66414843146076, 35.043873061135166 ] }, "type": "Feature", "properties": { "Status": "M", "City": "Collierville", "Match_type": "A", "Name": "Family Taekwondo Center", "Zip": 38017.0, "Phone": "888-998-2546", "ARC_Zone": "38017", "County": "Shelby", "Fuel": "Electric", "State": "TN", "Score": 100, "Address": "150 N Main St", "ARC_Street": "150 N Main St", "Match_addr": "150 N MAIN ST, 38017", "Type": "Level 2", "Side": "R" } }, { "geometry": { "type": "Point", "coordinates": [ -89.97277908380968, 35.16842400125575 ] }, "type": "Feature", "properties": { "Status": "M", "City": "Memphis", "Match_type": "A", "Name": "MLGW Garage", "Zip": 38108.0, "Phone": null, "ARC_Zone": "38108", "County": "Shelby", "Fuel": "Compressed Natural Gas", "State": "TN", "Score": 100, "Address": "1130 Tupelo St", "ARC_Street": "1130 Tupelo St", "Match_addr": "1130 TUPELO ST, 38108", "Type": null, "Side": "R" } }, { "geometry": { "type": "Point", "coordinates": [ -89.98299986412187, 34.962745154381494 ] }, "type": "Feature", "properties": { "Status": "M", "City": "Southaven", "Match_type": "M", "Name": "Landers Nissan", "Zip": 38671.0, "Phone": "662-349-5557", "ARC_Zone": "38671", "County": "Desoto", "Fuel": "Electric", "State": "MS", "Score": 100, "Address": "371 E Goodman Rd", "ARC_Street": "371 HWY 302", "Match_addr": "371 HWY 302, 38671", "Type": "Level 2", "Side": "L" } }, { "geometry": { "type": "Point", "coordinates": [ -89.8735443447006, 34.99203434956717 ] }, "type": "Feature", "properties": { "Status": "M", "City": "Olive Branch", "Match_type": "M", "Name": "Ferrell Gas", "Zip": 38654.0, "Phone": "662-890-6139", "ARC_Zone": "38654", "County": "Desoto", "Fuel": "Propane", "State": "MS", "Score": 81, "Address": "9047 Yaweh Rd", "ARC_Street": "9047 YAHWEH RD", "Match_addr": "9047 YAHWEH DR, 38654", "Type": null, "Side": "R" } } ] }